$GPGGA,230102.839,,,,,0,00,,,M,0.0,M,,0000*56
$GPGSA,A,1,,,,,,,,,,,,,,,*1E
$GPRMC,230102.839,V,,,,,,,041106,,*2D
$GPGGA,230103.839,,,,,0,00,,,M,0.0,M,,0000*57
$GPGSA,A,1,,,,,,,,,,,,,,,*1E
$GPRMC,230103.839,V,,,,,,,041106,,*2C
$GPGGA,230104.839,,,,,0,00,,,M,0.0,M,,0000*50
$GPGSA,A,1,,,,,,,,,,,,,,,*1E
$GPGSV,3,1,12,07,79,096,,18,68,091,42,15,66,165,,22,54,353,45*74
$GPGSV,3,2,12,16,52,284,,21,47,130,,03,35,229,,06,21,059,*72
$GPGSV,3,3,12,26,12,127,,19,08,234,36,29,08,137,,14,-1,012,*65
$GPRMC,230104.839,V,,,,,,,041106,,*2B
$GPGGA,230105.839,,,,,0,00,,,M,0.0,M,,0000*51
$GPGSA,A,1,,,,,,,,,,,,,,,*1E
$GPRMC,230105.839,V,,,,,,,041106,,*2A
$GPGGA,230106.838,,,,,0,00,,,M,0.0,M,,0000*53
$GPGSA,A,1,,,,,,,,,,,,,,,*1E
$GPRMC,230106.838,V,,,,,,,041106,,*28
$GPGGA,230107.842,,,,,0,00,,,M,0.0,M,,0000*5F
$GPGSA,A,1,,,,,,,,,,,,,,,*1E
$GPRMC,230107.842,V,,,,,,,041106,,*24
$GPGGA,230108.842,,,,,0,00,,,M,0.0,M,,0000*50
$GPGSA,A,1,,,,,,,,,,,,,,,*1E
$GPRMC,230108.842,V,,,,,,,041106,,*2B
$GPGGA,230109.838,,,,,0,00,,,M,0.0,M,,0000*5C
$GPGSA,A,1,,,,,,,,,,,,,,,*1E
$GPGSV,3,1,12,07,79,096,,18,68,091,45,15,66,165,34,22,54,353,47*76
$GPGSV,3,2,12,16,52,284,,21,47,130,,03,35,229,,06,21,059,*72
$GPGSV,3,3,12,26,12,127,,19,08,234,36,29,08,137,,14,-1,012,*65
$GPRMC,230109.838,V,,,,,,,041106,,*27
$GPGGA,230110.838,,,,,0,00,,,M,0.0,M,,0000*54
$GPGSA,A,1,,,,,,,,,,,,,,,*1E
$GPRMC,230110.838,V,,,,,,,041106,,*2F
$GPGGA,230111.838,,,,,0,00,,,M,0.0,M,,0000*55
$GPGSA,A,1,,,,,,,,,,,,,,,*1E
$GPRMC,230111.838,V,,,,,,,041106,,*2E
$GPGGA,230112.838,,,,,0,00,,,M,0.0,M,,0000*56
$GPGSA,A,1,,,,,,,,,,,,,,,*1E
$GPRMC,230112.838,V,,,,,,,041106,,*2D
$GPGGA,230113.838,,,,,0,00,,,M,0.0,M,,0000*57
$GPGSA,A,1,,,,,,,,,,,,,,,*1E
$GPRMC,230113.838,V,,,,,,,041106,,*2C
$GPGGA,230114.838,,,,,0,00,,,M,0.0,M,,0000*50
$GPGSA,A,1,,,,,,,,,,,,,,,*1E
$GPGSV,3,1,12,07,79,096,,18,68,091,45,15,66,165,26,22,54,353,47*75
$GPGSV,3,2,12,16,52,284,,21,47,130,,03,35,229,,06,21,059,*72
$GPGSV,3,3,12,26,12,127,,19,08,234,36,29,08,137,,14,-1,012,*65
$GPRMC,230114.838,V,,,,,,,041106,,*2B
$GPGGA,230115.838,,,,,0,00,,,M,0.0,M,,0000*51
$GPGSA,A,1,,,,,,,,,,,,,,,*1E
$GPRMC,230115.838,V,,,,,,,041106,,*2A
$GPGGA,230116.838,,,,,0,00,,,M,0.0,M,,0000*52
$GPGSA,A,1,,,,,,,,,,,,,,,*1E
$GPRMC,230116.838,V,,,,,,,041106,,*29
$GPGGA,230117.838,,,,,0,00,,,M,0.0,M,,0000*53
$GPGSA,A,1,,,,,,,,,,,,,,,*1E
$GPRMC,230117.838,V,,,,,,,041106,,*28
$GPGGA,230118.838,,,,,0,00,,,M,0.0,M,,0000*5C
$GPGSA,A,1,,,,,,,,,,,,,,,*1E
$GPRMC,230118.838,V,,,,,,,041106,,*27
$GPGGA,230119.838,,,,,0,00,,,M,0.0,M,,0000*5D
$GPGSA,A,1,,,,,,,,,,,,,,,*1E
$GPGSV,3,1,12,07,79,096,,18,68,091,45,15,66,165,35,22,54,353,47*77
$GPGSV,3,2,12,16,52,284,,21,47,130,,03,35,229,,06,21,059,*72
$GPGSV,3,3,12,26,12,127,,19,08,234,36,29,08,137,,14,-1,012,*65
$GPRMC,230119.838,V,,,,,,,041106,,*26
$GPGGA,230120.838,,,,,0,00,,,M,0.0,M,,0000*57
$GPGSA,A,1,,,,,,,,,,,,,,,*1E
$GPRMC,230120.838,V,,,,,,,041106,,*2C
$GPGGA,230121.838,,,,,0,00,,,M,0.0,M,,0000*56
$GPGSA,A,1,,,,,,,,,,,,,,,*1E
$GPRMC,230121.838,V,,,,,,,041106,,*2D
$GPGGA,230122.838,,,,,0,00,,,M,0.0,M,,0000*55
$GPGSA,A,1,,,,,,,,,,,,,,,*1E
$GPRMC,230122.838,V,,,,,,,081114,,*21
$GPGGA,230123.838,,,,,0,00,,,M,0.0,M,,0000*54
$GPGSA,A,1,,,,,,,,,,,,,,,*1E
$GPRMC,230123.838,V,,,,,,,081114,,*20
$GPGGA,230124.838,,,,,0,00,,,M,0.0,M,,0000*53
$GPGSA,A,1,,,,,,,,,,,,,,,*1E
$GPGSV,3,1,12,07,79,096,,18,68,091,44,15,66,165,37,22,54,353,47*74
$GPGSV,3,2,12,16,52,284,,21,47,130,,03,35,229,,06,21,059,*72
$GPGSV,3,3,12,26,12,127,,19,08,234,35,29,08,137,,14,-1,012,*66
$GPRMC,230124.838,V,,,,,,,081114,,*27
$GPGGA,230125.842,,,,,0,00,,,M,0.0,M,,0000*5F
$GPGSA,A,1,,,,,,,,,,,,,,,*1E
$GPRMC,230125.842,V,,,,,,,081114,,*2B
$GPGGA,230126.838,,,,,0,00,,,M,0.0,M,,0000*51
$GPGSA,A,1,,,,,,,,,,,,,,,*1E
$GPRMC,230126.838,V,,,,,,,081114,,*25
$GPGGA,230127.838,,,,,0,00,,,M,0.0,M,,0000*50
$GPGSA,A,1,,,,,,,,,,,,,,,*1E
$GPRMC,230127.838,V,,,,,,,081114,,*24
$GPGGA,230128.838,,,,,0,00,,,M,0.0,M,,0000*5F
$GPGSA,A,1,,,,,,,,,,,,,,,*1E
$GPRMC,230128.838,V,,,,,,,081114,,*2B
$GPGGA,230129.842,,,,,0,00,,,M,0.0,M,,0000*53
$GPGSA,A,1,,,,,,,,,,,,,,,*1E
$GPGSV,3,1,12,07,79,096,,18,68,091,44,15,66,165,37,22,54,353,46*75
$GPGSV,3,2,12,16,52,284,,21,47,130,,03,35,229,,06,21,059,*72
$GPGSV,3,3,12,26,12,127,,19,08,234,35,29,08,137,,14,-1,012,*66
$GPRMC,230129.842,V,,,,,,,081114,,*27
$GPGGA,230130.838,,,,,0,00,,,M,0.0,M,,0000*56
$GPGSA,A,1,,,,,,,,,,,,,,,*1E
$GPRMC,230130.838,V,,,,,,,081114,,*22
$GPGGA,230131.838,,,,,0,00,,,M,0.0,M,,0000*57
$GPGSA,A,1,,,,,,,,,,,,,,,*1E
$GPRMC,230131.838,V,,,,,,,081114,,*23
$GPGGA,230132.842,,,,,0,00,,,M,0.0,M,,0000*59
$GPGSA,A,1,,,,,,,,,,,,,,,*1E
$GPRMC,230132.842,V,,,,,,,081114,,*2D
$GPGGA,230133.842,,,,,0,00,,,M,0.0,M,,0000*58
$GPGSA,A,1,,,,,,,,,,,,,,,*1E
$GPRMC,230133.842,V,,,,,,,081114,,*2C
$GPGGA,230134.838,4013.2980,N,11138.8032,W,0,03,,16.4,M,-16.4,M,,0000*7D
$GPGSA,A,1,19,18,22,,,,,,,,,,,,*1F
$GPGSV,3,1,12,22,67,310,45,18,59,054,44,19,32,300,36,26,64,180,*7E
$GPGSV,3,2,12,21,38,132,,31,22,059,,03,20,305,,09,16,156,*76
$GPGSV,3,3,12,10,06,074,,15,05,128,42,02,04,132,,14,01,212,*71
$GPRMC,230134.838,A,4013.2980,N,11138.8032,W,,,081114,,*1E
$GPGGA,230135.838,4013.2866,N,11138.8024,W,0,03,,16.4,M,-16.4,M,,0000*72
$GPGSA,A,1,19,18,22,,,,,,,,,,,,*1F
$GPRMC,230135.838,A,4013.2866,N,11138.8024,W,,,081114,,*11
$GPGGA,230136.838,4013.2782,N,11138.8062,W,1,03,9.7,16.4,M,-16.4,M,,0000*57
$GPGSA,A,2,19,18,22,,,,,,,,,,9.7,9.7,1.0*33
$GPRMC,230136.838,A,4013.2782,N,11138.8062,W,14.79,187.11,081114,,*20
$GPGGA,230137.838,4013.2761,N,11138.8064,W,1,03,9.7,16.4,M,-16.4,M,,0000*5D
$GPGSA,A,2,19,18,22,,,,,,,,,,9.7,9.7,1.0*33
$GPRMC,230137.838,A,4013.2761,N,11138.8064,W,5.11,191.68,081114,,*1D
$GPGGA,230138.838,4013.2755,N,11138.8058,W,1,03,9.7,16.4,M,-16.4,M,,0000*5A
$GPGSA,A,2,19,18,22,,,,,,,,,,9.8,9.7,1.0*3C
$GPRMC,230138.838,A,4013.2755,N,11138.8058,W,5.01,186.82,081114,,*19
$GPGGA,230139.838,4013.2754,N,11138.8051,W,1,03,9.7,16.4,M,-16.4,M,,0000*53
$GPGSA,A,2,19,18,22,,,,,,,,,,9.8,9.7,1.0*3C
$GPGSV,3,1,12,22,67,310,45,18,59,054,43,19,32,300,37,26,64,180,*78
$GPGSV,3,2,12,21,38,132,,31,22,059,,03,20,305,,09,16,156,*76
$GPGSV,3,3,12,10,06,074,,15,05,128,42,02,04,132,,14,01,212,*71
$GPRMC,230139.838,A,4013.2754,N,11138.8051,W,5.23,184.80,081114,,*10
$GPGGA,230140.842,4013.2754,N,11138.8049,W,1,03,9.7,16.4,M,-16.4,M,,0000*59
$GPGSA,A,2,19,18,22,,,,,,,,,,9.8,9.7,1.0*3C
$GPRMC,230140.842,A,4013.2754,N,11138.8049,W,4.86,181.69,081114,,*16
$GPGGA,230141.842,4013.2736,N,11138.8050,W,1,03,9.7,16.4,M,-16.4,M,,0000*54
$GPGSA,A,2,19,18,22,,,,,,,,,,9.8,9.7,1.0*3C
$GPRMC,230141.842,A,4013.2736,N,11138.8050,W,4.48,184.58,081114,,*1E
$PSRFTXT,Version:GSW3.2.4_3.1.00.12-SDK003P1.00a 
$PSRö$PSRFTXT,Version:GSW3.2.4_3.1.00.12-SDK003P1.00a 
$PSRFTXT,Version2:F-GPS-03-0701301
$PSRFTXT,WAAS Enable
$PSRFTXT,TOW:  601308
$PSRFTXT,WK:   1817
$PSRFTXT,POS:  -1798986 -4532917 4096807
$PSRFTXT,CLK:  94587
$PSRFTXT,CHNL: 12
$PSRFTXT,Baud rate: 4800 
$GPGGA,230146.407,,,,,0,00,,,M,0.0,M,,0000*57
$GPGSA,A,1,,,,,,,,,,,,,,,*1E
$GPRMC,230146.407,V,,,,,,,081114,,*23
$GPGGA,230147.345,4013.2915,N,11138.8047,W,0,03,,16.2,M,-16.4,M,,0000*70
$GPGSA,A,1,18,22,19,,,,,,,,,,,,*1F
$GPRMC,230147.345,A,4013.2915,N,11138.8047,W,,,081114,,*15
$GPGGA,230148.345,4013.2501,N,11138.8068,W,1,03,9.8,16.2,M,-16.4,M,,0000*55
$GPGSA,A,2,18,22,19,,,,,,,,,,9.8,9.8,1.0*33
$GPRMC,230148.345,A,4013.2501,N,11138.8068,W,5.67,184.77,081114,,*17
$GPGGA,230149.345,4013.2419,N,11138.8069,W,1,03,9.8,16.2,M,-16.4,M,,0000*5D
$GPGSA,A,2,18,22,19,,,,,,,,,,9.9,9.8,1.0*32
$GPRMC,230149.345,A,4013.2419,N,11138.8069,W,4.67,185.37,081114,,*1B
$GPGGA,230150.345,4013.2448,N,11138.8065,W,1,03,9.8,16.2,M,-16.4,M,,0000*5D
$GPGSA,A,2,18,22û$PSRFTXT,Version:GSW3.2.4_3.1.00.12-SDK003P1.00a 
$PSRFTXT,Version2:F-GPS-03-0701301
$PSRFTXT,WAAS Enable
$PSRFTXT,TOW:  601321
$PSRFTXT,WK:   1817
$PSRFTXT,POS:  -1798991 -4532924 4096798
$PSRFTXT,CLK:  94586
$PSRFTXT,CHNL: 12
$PSRFTXT,Baud rate: 4800 
$GPGGA,230152.993,,,,,0,00,,,M,0.0,M,,0000*52
$GPGSA,A,1,,,,,,,,,,,,,,,*1E
$GPRMC,230152.993,V,,,,,,,081114,,*26
$GPGGA,230153.933,4013.2035,N,11138.8025,W,0,03,,16.7,M,-16.4,M,,0000*74
$GPGSA,A,1,22,18,19,,,,,,,,,,,,*1F
$GPRMC,230153.933,A,4013.2035,N,11138.8025,W,,,081114,,*14
$GPGGc&6VFæY66Æó6æ3f33?,11138.8059,W,ñffÆ9.9,16.7,M,f,M,,ÿÌ*52
$GPGSA,A,2,19,22,18,,,,,,,,,,9.9,9.9,1.0*33
$GPRMC,230154.933,A,4013.2276,N,11138.8059,W,3.23,186.12,081114,,*13
ä_ÐßÿÐÿVÿþóæÍ3,N,11138.8067,W,1,0ÿÿ33ËÓ,00ðôfË19|òæÆY3YgË9.9,1.0*33
$GPRMC,230155.933,A,4013.2543,N,11138.8067,W,4.81,186.43,081114,,*15
$GPGGA,230156.933,4013.2596,N,11138.8060,W,1,03,9.9,16.7,M,-16.4,M,,0000*53
$GPGSA,A,2,19,22,18,,,,,,,,,,9.9,9.9,1.0*33
$GPGSV,3,1,12,22,67,311,45,18,59,054,42,19,32,300,38,26,64,180,*77
$GPGSV,3,2,12,21,37,132,,31,22,058,,03,20,305,,09,16,156,*78
$GPGSV,3,3,12,10,06,074,,15,05,128,43,02,04,132,,14,01,212,*70
$GPRMC,230156.933,A,4013.2596,N,11138.8060,W,4.95,184.93,081114,,*13
$GPGGA,230157.933,4013.2552,N,11138.8064,W,1,03,9.9,16.7,M,-16.4,M,,0000*5E
$GPGSA,A,2,19,22,18,,,,,,,,,,9.9,9.9,1.0*33
$GPRMC,230157.933,A,4013.2552,N,11138.8064,W,5.11,184.40,081114,,*1D
$GPGGA,230158.933,4013.2636,N,11138.8065,W,1,03,9.9,16.7,M,-16.4,M,,0000*51
$GPGSA,A,2,19,22,18,,,,,,,,,,9.9,9.9,1.0*33
$GPRMC,230158.933,A,4013.2636,N,11138.8065,W,4.86,185.17,081114,,*1E
$GPGGA,230159.933,4013.2628,N,11138.8069,W,1,03,9.9,16.7,M,-16.4,M,,0000*53
$GPGSA,A,2,19,22,18,,,,,,,,,,10.0,9.9,1.0*02
$GPRMC,230159.933,A,4013.2628,N,11138.8069,W,5.11,184.40,081114,,*10
$GPGGA,230200.933,4013.2678,N,11138.8063,W,1,03,9.9,16.7,M,-16.4,M,,0000*53
$GPGSA,A,2,19,22,18,,,,,,,,,,10.0,9.9,1.0*02
$GPRMC,230200.933,A,4013.2678,N,11138.8063,W,4.72,186.41,081114,,*17
²Ðÿc&6þsgff4013.2605,N,11138.8071,W,1,03,9.9,16.7YYf33ËÓ,,0000*5B
$GPGSA,A,2,19,22,18,,,üÆYfÌ.0,9.9,1.0*02
$GPGSV,3,1,12,22,67<fÌ1,45,18,59,054,42,19,32,300,38,26,64,180,*77
$GPGSV,3,2,12,21,37,132,,31,22,058,,03,20,305,,09,16,156,*78
$GPGSV,3,3,12,10,06,074,,15,05,128,43,02,04,132,,14,01,212,*70
$GPRMC,230201.933,A,4013.2605,N,11138.8071,W,4.67,185.37,081114,,*19
$GPGGA,230202.933,4013.2590,N,11138.8076,W,1,03,9.9,16.7,M,-16.4,M,,0000*50
$GPGSA,A,2,19,22,18,,,,,,,,,,10.0,9.9,1.0*02
$GPRMC,230202.933,A,4013.2590,N,11138.8076,W,5.10,184.67,081114,,*17
$GPGGA,230203.933,4013.2643,N,11138.8073,W,1,03,9.9,16.7,M,-16.4,M,,0000*59
$GPGSA,A,2,19,22,18,,,,,,,,,,10.0,9.9,1.0*02
$GPRMC,230203.933,A,4013.2643,N,11138.8073,W,5.10,184.67,081114,,*1E
$GPGGA,230204.933,4013.2646,N,11138.8082,W,1,03,9.9,16.7,M,-16.4,M,,0000*55
$GPGSA,A,2,19,22,18,,,,,,,,,,10.0,9.9,1.0*02
$GPRMC,230204.933,A,4013.2646,N,11138.8082,W,4.23,185.14,081114,,*16
$GPGGA,230205.932,4013.2517,N,11138.8115,W,0,03,,16.7,M,-16.4,M,þÆ3f18,,,,,,,,,,,,*1F
$GPRMC,230205.932,A,4013.2517,N,11138.8115,W,,,081114,,*12
$GPGGA,230206.936,4013.2518,N,11138.8104,W,0,03,,16.7,M,-16.4,M,,0000*7A
$GPGSA,A,1,19,22,18,,,,,,,,,,,,*1F
$GPGSV,3,1,12,22,67,311,45,18,59,054,35,19,32,300,35,26,64,180,*7A
$GPGSV,3,2,12,21,37,132,,31,22,058,,03,20,305,,09,16,156,*78
$GPGSV,3,3,12,10,06,074,,15,05,128,43,02,04,132,,14,01,212,*70
$GPRMC,230206.936,A,4013.2518,N,11138.8104,W,,,081114,,*1A
$GPGGA,230207.936,4013.2482,N,11138.8085,W,0,03,,16.7,M,-16.4,M,,0000*71
$GPGSA,A,1,19,22,18,,,,,,,,,,,,*1F
$GPRMC,230207.936,A,4013.2482,N,11138.8085,W,,,081114,,*11
$GPGGA,230208.936,4013.2535,N,11138.8086,W,0,03,,16.7,M,-16.4,M,,0000*70
$GPGSA,A,1,19,22,18,,,,,,,,,,,,*1F
$GPRMC,230208.936,A,4013.2535,N,11138.8086,W,,,081114,,*10
$GPGGA,230209.936,4013.2458,N,11138.8075,W,0,03,,16.7,M,-16.4,M,,0000*77
$GPGSA,A,1,19,22,18,,,,,,,,,,,,*1F
$GPRMC,230209.936,A,4013.2458,N,11138.8075,W,,,081114,,*17
$GPGGA,230210.936,4013.2521,N,11138.8077,W,0,03,,16.7,M,-16.4,M,,0000*72
$GPGSA,A,1,19,22,18,,,,,,,,,,,,*1F
$GPRMC,230210.936,A,4013.2521,N,11138.8077,W,,,081114,,*12
$GPGGA,230211.936,4013.2253,N,11138.8094,W,0,03,,16.7,M,-16.4,M,,0000*7C
$GPGSA,A,1,19,22,18,,,,,,,,,,,,*1F
$GPGSV,3,1,12,22,67,311,45,18,59,054,36,19,32,300,35,26,64,180,*79
$GPGSV,3,2,12,21,37,132,,31,22,058,,03,20,305,,09,16,156,*78
$GPGSV,3,3,12,10,06,074,,15,05,128,42,02,04,132,,14,01,212,*71
$GPRMC,230211.936,A,4013.2253,N,11138.8094,W,,,081114,,*1C
$GPGGA,230212.932,4013.2243,N,11138.8068,W,0,03,,16.8,M,-16.4,M,,0000*76
$GPGSA,A,1,19,22,18,,,,,,,,,,,,*1F
$GPRMC,230212.932,A,4013.2243,N,11138.8068,W,,,081114,,*19
$GPGGA,230213.932,4013.2088,N,11138.8064,W,0,03,,16.7,M,-16.4,M,,0000*71
$GPGSA,A,1,19,22,18,,,,,,,,,,,,*1F
$GPRMC,230213.932,A,4013.2088,N,11138.8064,W,,,081114,,*11ÿ$PSRFTXT,Version:GSW3.2.4_3.1.00.12-Sü$PSRFTXT,Version:GSW3.2.4_3.1.00.12-SDK003P1.00a 
$PSRFTXT,Version2:F-GPS-03-0701301
$PSRFTXT,WAAS Enable
$PSRFTXT,TOW:  601327
$PSRFTXT,WK:   1817
$PSRFTXT,POS:  -1799027 -4533023 4096674
$PSRFTXT,CLK:  94585
$PSRFTXT,CHNL: 12
$PSRFTXT,Baud rate: 4800 
$GPGGA,230237.863,,,,,0,00,,,M,0.0,M,,0000*5C
$GPGSA,A,1,,,,,,,,,,,,,,,*1E
$GPRMC,230237.863,V,,,,,,,081114,,*28
$GPGGA,230238.801,4013.1709,N,11138.8111,W,0,03,,17.1,M,-16.4,M,,0000*70
$GPGSA,A,1,22,18,19,,,,,,,,,,,,*1F
$GPRMC,230238.801,A,4013.1709,N,11138.8111,W,,,081114,,*17
$GPGGA,230239.805,4013.1826,N,11138.8139,W,1,03,10.3,17.1,M,-16.4,M,,0000*60
$GPGSA,A,2,22,18,19,,,,,,,,,,10.3,10.3,1.0*33
$GPRMC,230239.805,A,4013.1826,N,11138.8139,W,0.00,,081114,,*04
$GPGGA,230240.805,4013.1854,N,11138.8149,W,1,03,10.3,17.1,M,-16.4,M,,0000*6C
$GPGSA,A,2,22,18,19,,,,,,,,,,10.4,10.3,1.0*34
$GPRMC,230240.805,A,4013.1854,N,11138.8149,W,0.00,,081114,,*08
$GPGGA,230241.805,4013.1778,N,11138.8148,W,1,03,10.3,17.1,M,-16.4,M,,0000*6D
$GPGSA,A,2,22,18,19,,,,,,,,,,10.4,10.3,1.0*34
$GPGSV,3,1,12,22,67,312,45,18,58,055,44,19,32,299,38,26,65,180,*72
$GPGSV,3,2,12,21,37,132,,31,22,058,,0ó$PSRFTXT,Version:GSW3.2.4_3.1.00.12-SDK003P1.00a 
$PSRFTXT,Version2:F-GPS-03-0701301
$PSRFTXT,WAAS Enable
$PSRFTXT,TOW:  601372
$PSRFTXT,WK:   1817
$PSRFTXT,POS:  -1799053 -4533055 4096628
$PSRFTXT,CLK:  94584
$PSRFTXT,CHNL: 12
$PSRFTXT,Baud rate: 4800 
$GPGGA,230245.624,,,,,0,00,,,M,0.0,M,,0000*54
$GPGSA,A,1,,,,,,,,,,,,,,,*1E
$GPRMC,230245þ$PSRFTXT,Version:GSW3.2.4_3.1.00.12-SDK003P1.00a 
$PSRFTXT,Version2:F-GPS-03-0701301
$PSRFTXT,WAAS Enable
$PSRFTXT,TOW:  601372
$PSRFTXT,WK:   1817
$PSRFTXT,POS:  -1799053 -4533055 4096628
$PSRFTXT,CLK:  94584
$PSRFTXT,CHNL: 12
$PSRFTXT,Baud rate: 4800 
$PSRFTXT,Version:GSW3.2.4_3.1.00.12-SDK003P1.00a 
$PSRFTXT,Version2:F-GPS-03-0701301
$PSRFTXT,WAAS Enable
$PSRFTXT,TOW:  601372
$PSRFTXT,WK:   1817
$PSRFTXT,POS:  -1799053 -4533055 4096628
$PSRFTXT,CLK:  94584
$PSRFTXT,CHNL: 12
$PSRFTXT,Baud rate: 4800 
$GPGGA,230251.804,,,,,0,00,,,M,0.0,M,,0000*5D
$GPGSA,A,1,,,,,,,,,,,,,,,*1E
$GPRMC,230251.804,V,,,,,,,081114,,*29
$GPGGA,230252.743,4013.1179,N,11138.8150,W,0,03,,17.4,M,-16.4,M,,0000*74
$GPGSA,A,1,22,18,19,,,,,,,,,,,,*1F
$GPRMC,230252.743,A,4013.1179,N,11138.8150,W,,,081114,,*16
$GPGGA,230253.743,4013.1658,N,11138.8177,W,0,03,,17.4,M,-16.4,M,,0000*74
$GPGSA,A,1,22,19,18,,,,,,,,,,,,*1F
$GPRMC,230253.743,A,4013.1658,N,11138.8177,W,,,081114,,*16
$GPGGA,230254.743,4013.1678,N,11138.8176,W,1,03,10.5,17.4,M,-16.4,M,,0000*6B
$GPGSA,A,2,22,19,18,,,,,,,,,,10.5,10.5,1.0*33
$GPRMC,230254.743,A,4013.1678,N,11138.8176,W,0.00,,081114,,*0C
$GPGGA,230255.743,4013.1661,N,11138.8168,W,1,03,10.5,17.4,M,-16.4,M,,0000*6D
$GPGSA,A,2,22,19,18,,,,,,,,,,10.5,10.5,1.0*33
$GPGSV,3,1,12,22,67,312,48,18,58,055,44,19,32,299,38,26,65,180,*7F
$GPGSV,3,2,12,21,37,132,,31,22,058,,03,20,305,,09,16,155,*7B
$GPGSV,3,3,12,10,06,074,,15,04,128,43,02,04,132,,14,01,212,*71
$GPRMC,230255.743,A,4013.1661,N,11138.8168,W,0.00,,081114,,*0A
$GPGGA,230256.743,4013.1648,N,11138.8168,W,1,03,10.5,17.4,M,-16.4,M,,0000*65
$GPGSA,A,2,22,19,18,,,,,,,,,,10.5,10.5,1.0*33
$GPRMC,230256.743,A,4013.1648,N,11138.8168,W,0.00,,081114,,*02
$GPGGA,230257.743,4013.1587,N,11138.8174,W,1,03,10.5,17.4,M,-16.4,M,,0000*69
$GPGSA,A,2,22,19,18,,,,,,,,,,10.5,10.5,1.0*33
$GPRMC,230257.743,A,4013.1587,N,11138.8174,W,0.00,,081114,,*0E
$GPGGA,230258.743,4013.1469,N,11138.8196,W,1,03,10.5,17.4,M,-16.4,M,,0000*6B
$GPGSA,A,2,22,19,18,,,,,,,,,,10.5,10.5,1.0*33
$GPRMC,230258.743,A,4013.1469,N,11138.8196,W,0.00,,081114,,*0C
$GPGGA,230259.743,4013.1526,N,11138.8200,W,1,03,10.5,17.4,M,-16.4,M,,0000*6C
$GPGSA,A,2,22,19,18,,,,,,,,,,10.6,10.5,1.0*30
$GPRMC,230259.743,A,4013.1526,N,11138.8200,W,0.00,,081114,,*0B
$GPGGA,230300.743,4013.1484,N,11138.8195,W,1,03,10.5,17.4,M,-16.4,M,,0000*67
$GPGSA,A,2,22,19,18,,,,,,,,,,10.6,10.5,1.0*30
$GPGSV,3,1,12,22,67,312,48,18,58,055,44,19,32,299,39,26,65,180,*7E
$GPGSV,3,2,12,21,37,132,,31,22,058,,03,20,305,,09,16,155,*7B
$GPGSV,3,3,12,10,06,074,,15,04,128,43,02,04,132,,14,01,212,*71
$GPRMC,230300.743,A,4013.1484,N,11138.8195,W,0.00,,081114,,*00
$GPGGA,230301.743,4013.1366,N,11138.8187,W,1,03,10.5,17.4,M,-16.4,M,,0000*6E
$GPGSA,A,2,22,19,18,,,,,,,,,,10.6,10.5,1.0*30
$GPRMC,230301.743,A,4013.1366,N,11138.8187,W,0.00,,081114,,*09
$GPGGA,230302.743,4013.1468,N,11138.8183,W,1,03,10.5,17.4,M,-16.4,M,,0000*60
$GPGSA,A,2,22,19,18,,,,,,,,,,10.6,10.5,1.0*30
$GPRMC,230302.743,A,4013.1468,N,11138.8183,W,0.00,,081114,,*07
$GPGGA,230303.743,4013.1465,N,11138.8180,W,1,03,10.5,17.4,M,-16.4,M,,0000*6F
$GPGSA,A,2,22,19,18,,,,,,,,,,10.6,10.5,1.0*30
$GPRMC,230303.743,A,4013.1465,N,11138.8180,W,0.00,,081114,,*08
$GPGGA,230304.743,4013.1442,N,11138.8180,W,1,03,10.6,17.4,M,-16.4,M,,0000*6E
$GPGSA,A,2,22,19,18,,,,,,,,,,10.6,10.6,1.0*33
$GPRMC,230304.743,A,4013.1442,N,11138.8180,W,0.00,,081114,,*0A
$GPGGA,230305.743,4013.1424,N,11138.8180,W,1,03,10.6,17.4,M,-16.4,M,,0000*6F
$GPGSA,A,2,22,19,18,,,,,,,,,,10.6,10.6,1.0*33
$GPGSV,3,1,12,22,67,312,48,18,58,055,44,19,32,299,40,26,65,180,*70
$GPGSV,3,2,12,21,37,132,,31,22,058,,03,20,305,,09,16,155,*7B
$GPGSV,3,3,12,10,06,074,,15,04,128,43,02,04,132,,14,01,212,*71
$GPRMC,230305.743,A,4013.1424,N,11138.8180,W,0.00,,081114,,*0B
$GPGGA,230306.743,4013.1405,N,11138.8181,W,1,03,10.6,17.4,M,-16.4,M,,0000*6E
$GPGSA,A,2,22,19,18,,,,,,,,,,10.6,10.6,1.0*33
$GPRMC,230306.743,A,4013.1405,N,11138.8181,W,0.00,,081114,,*0A
$GPGGA,230307.743,4013.1386,N,11138.8180,W,1,03,10.6,17.4,M,-16.4,M,,0000*62
$GPGSA,A,2,22,19,18,,,,,,,,,,10.6,10.6,1.0*33
$GPRMC,230307.743,A,4013.1386,N,11138.8180,W,0.00,,081114,,*06
$GPGGA,230308.743,4013.1373,N,11138.8178,W,1,03,10.6,17.4,M,-16.4,M,,0000*60
$GPGSA,A,2,22,19,18,,,,,,,,,,10.7,10.6,1.0*32
$GPRMC,230308.743,A,4013.1373,N,11138.8178,W,0.00,,081114,,*04
$GPGGA,230309.743,4013.1354,N,11138.8178,W,1,03,10.6,17.4,M,-16.4,M,,0000*64
$GPGSA,A,2,22,19,18,,,,,,,,,,10.7,10.6,1.0*32
$GPRMC,230309.743,A,4013.1354,N,11138.8178,W,0.00,,081114,,*00
$GPGGA,230310.743,4013.1335,N,11138.8179,W,1,03,10.6,17.4,M,-16.4,M,,0000*6A
$GPGSA,A,2,22,19,18,,,,,,,,,,10.7,10.6,1.0*32
$GPGSV,3,1,12,22,67,312,48,18,58,055,44,19,32,299,41,26,65,180,*71
$GPGSV,3,2,12,21,37,132,,31,22,058,,03,20,305,,09,16,155,*7B
$GPGSV,3,3,12,10,06,074,,15,04,128,44,02,04,132,,14,01,212,*76
$GPRMC,230310.743,A,4013.1335,N,11138.8179,W,0.00,,081114,,*0E
$GPGGA,230311.743,4013.1314,N,11138.8180,W,1,03,10.6,17.4,M,-16.4,M,,0000*6E
$GPGSA,A,2,22,19,18,,,,,,,,,,10.7,10.6,1.0*32
$GPRMC,230311.743,A,4013.1314,N,11138.8180,W,0.00,,081114,,*0A
$GPGGA,230312.743,4013.1297,N,11138.8181,W,1,03,10.6,17.4,M,-16.4,M,,0000*66
$GPGSA,A,2,22,19,18,,,,,,,,,,10.7,10.6,1.0*32
$GPRMC,230312.743,A,4013.1297,N,11138.8181,W,0.00,,081114,,*02
$GPGGA,230313.743,4013.1279,N,11138.8182,W,1,03,10.7,17.4,M,-16.4,M,,0000*65
$GPGSA,A,2,22,19,18,,,,,,,,,,10.7,10.7,1.0*33
$GPRMC,230313.743,A,4013.1279,N,11138.8182,W,0.00,,081114,,*00
$GPGGA,230314.743,4013.1262,N,11138.8182,W,1,03,10.7,17.4,M,-16.4,M,,0000*68
$GPGSA,A,2,22,19,18,,,,,,,,,,10.7,10.7,1.0*33
$GPRMC,230314.743,A,4013.1262,N,11138.8182,W,0.00,,081114,,*0D
$GPGGA,230315.743,4013.1246,N,11138.8183,W,1,03,10.7,17.4,M,-16.4,M,,0000*6E
$GPGSA,A,2,22,19,18,,,,,,,,,,10.7,10.7,1.0*33
$GPGSV,3,1,12,22,67,312,48,18,58,055,44,19,32,299,41,26,65,180,*71
$GPGSV,3,2,12,21,37,132,,31,22,058,,03,20,305,,09,16,155,*7B
$GPGSV,3,3,12,10,06,074,,15,04,128,43,02,04,132,,14,01,212,*71
$GPRMC,230315.743,A,4013.1246,N,11138.8183,W,0.00,,081114,,*0B
$GPGGA,230316.743,4013.1228,N,11138.8184,W,1,03,10.7,17.4,M,-16.4,M,,0000*62
$GPGSA,A,2,22,19,18,,,,,,,,,,10.7,10.7,1.0*33
$GPRMC,230316.743,A,4013.1228,N,11138.8184,W,0.00,,081114,,*07
$GPGGA,230317.743,4013.1211,N,11138.8185,W,1,03,10.7,17.4,M,-16.4,M,,0000*68
$GPGSA,A,2,22,19,18,,,,,,,,,,10.8,10.7,1.0*3C
$GPRMC,230317.743,A,4013.1211,N,11138.8185,W,0.00,,081114,,*0D
$GPGGA,230318.743,4013.1194,N,11138.8187,W,1,03,10.7,17.4,M,-16.4,M,,0000*6B
$GPGSA,A,2,22,19,18,,,,,,,,,,10.8,10.7,1.0*3C
$GPRMC,230318.743,A,4013.1194,N,11138.8187,W,0.00,,081114,,*0E
$GPGGA,230319.743,4013.1177,N,11138.8188,W,1,03,10.7,17.4,M,-16.4,M,,0000*68
$GPGSA,A,2,22,19,18,,,,,,,,,,10.8,10.7,1.0*3C
$GPRMC,230319.743,A,4013.1177,N,11138.8188,W,0.00,,081114,,*0D
$GPGGA,230320.743,4013.1160,N,11138.8189,W,1,03,10.7,17.4,M,-16.4,M,,0000*65
$GPGSA,A,2,22,19,18,,,,,,,,,,10.8,10.7,1.0*3C
$GPGSV,3,1,12,22,67,312,48,18,58,055,44,19,32,299,42,26,65,180,*72
$GPGSV,3,2,12,21,37,132,,31,21,058,,03,20,304,,09,16,155,*79
$GPGSV,3,3,12,10,05,074,,15,04,128,44,02,03,132,,14,01,212,*72
$GPRMC,230320.743,A,4013.1160,N,11138.8189,W,0.00,,081114,,*00
$GPGGA,230321.743,4013.1142,N,11138.8191,W,1,03,10.7,17.4,M,-16.4,M,,0000*6D
$GPGSA,A,2,22,19,18,,,,,,,,,,10.8,10.7,1.0*3C
$GPRMC,230321.743,A,4013.1142,N,11138.8191,W,0.00,,081114,,*08
$GPGGA,230322.743,4013.1125,N,11138.8192,W,1,03,10.8,17.4,M,-16.4,M,,0000*63
$GPGSA,A,2,22,19,18,,,,,,,,,,10.8,10.8,1.0*33
$GPRMC,230322.743,A,4013.1125,N,11138.8192,W,0.00,,081114,,*09
$GPGGA,230323.743,4013.1107,N,11138.8193,W,1,03,10.8,17.4,M,-16.4,M,,0000*63
$GPGSA,A,2,22,19,18,,,,,,,,,,10.8,10.8,1.0*33
$GPRMC,230323.743,A,4013.1107,N,11138.8193,W,0.00,,081114,,*09
$GPGGA,230324.743,4013.1090,N,11138.8195,W,1,03,10.8,17.4,M,-16.4,M,,0000*6D
$GPGSA,A,2,22,19,18,,,,,,,,,,10.8,10.8,1.0*33
$GPRMC,230324.743,A,4013.1090,N,11138.8195,W,0.00,,081114,,*07
$GPGGA,230325.743,4013.1071,N,11138.8196,W,1,03,10.8,17.4,M,-16.4,M,,0000*60
$GPGSA,A,2,22,19,18,,,,,,,,,,10.8,10.8,1.0*33
$GPGSV,3,1,12,22,67,312,48,18,58,055,44,19,32,299,42,26,65,180,*72
$GPGSV,3,2,12,21,37,132,,31,21,058,,03,20,304,,09,16,155,*79
$GPGSV,3,3,12,10,05,074,,15,04,128,45,02,03,132,,14,01,212,*73
$GPRMC,230325.743,A,4013.1071,N,11138.8196,W,0.00,,081114,,*0A
$GPGGA,230326.743,4013.1050,N,11138.8198,W,1,03,10.8,17.4,M,-16.4,M,,0000*6E
$GPGSA,A,2,22,19,18,,,,,,,,,,10.9,10.8,1.0*32
$GPRMC,230326.743,A,4013.1050,N,11138.8198,W,0.00,,081114,,*04
$GPGGA,230327.743,4013.1029,N,11138.8199,W,1,03,10.8,17.4,M,-16.4,M,,0000*60
$GPGSA,A,2,22,19,18,,,,,,,,,,10.9,10.8,1.0*32
$GPRMC,230327.743,A,4013.1029,N,11138.8199,W,0.00,,081114,,*0A
$GPGGA,230328.743,4014.8205,N,11138.8515,W,1,05,3.7,1433.0,M,-16.4,M,,0000*51
$GPGSA,A,3,22,15,24,19,18,,,,,,,,4.6,3.7,2.7*32
$GPRMC,230328.743,A,4014.8205,N,11138.8515,W,0.17,177.89,081114,,*1F
$GPGGA,230329.000,4014.8207,N,11138.8515,W,1,05,3.7,1433.0,M,-16.4,M,,0000*52
$GPGSA,A,3,22,15,24,19,18,,,,,,,,4.6,3.7,2.7*32
$GPRMC,230329.000,A,4014.8207,N,11138.8515,W,0.19,11.81,081114,,*2B
$GPGGA,230330.000,4014.8189,N,11138.8517,W,1,05,3.7,1433.7,M,-16.4,M,,0000*5A
$GPGSA,A,3,22,15,24,19,18,,,,,,,,4.6,3.7,2.7*32
$GPGSV,3,1,12,22,67,312,47,18,58,055,44,19,32,299,43,24,28,078,34*76
$GPGSV,3,2,12,15,14,046,44,26,65,180,,21,37,133,,31,21,058,*7C
$GPGSV,3,3,12,03,20,304,,09,17,155,,10,05,074,,02,03,132,*74
$GPRMC,230330.000,A,4014.8189,N,11138.8517,W,1.58,162.55,081114,,*1C
$GPGGA,230331.000,4014.8230,N,11138.8523,W,1,05,3.7,1437.1,M,-16.4,M,,0000*5F
$GPGSA,A,3,22,15,24,19,18,,,,,,,,4.6,3.7,2.7*32
$GPRMC,230331.000,A,4014.8230,N,11138.8523,W,2.30,123.96,081114,,*1C
$GPGGA,230332.000,4014.8256,N,11138.8522,W,1,05,3.7,1439.2,M,-16.4,M,,0000*50
$GPGSA,A,3,22,15,24,19,18,,,,,,,,4.6,3.7,2.7*32
$GPRMC,230332.000,A,4014.8256,N,11138.8522,W,1.59,117.53,081114,,*1C
$GPGGA,230333.000,4014.8254,N,11138.8522,W,1,05,3.7,1439.1,M,-16.4,M,,0000*50
$GPGSA,A,3,22,15,24,19,18,,,,,,,,4.6,3.7,2.7*32
$GPRMC,230333.000,A,4014.8254,N,11138.8522,W,1.49,138.65,081114,,*16
$GPGGA,230334.000,4014.8255,N,11138.8523,W,1,05,3.7,1439.2,M,-16.4,M,,0000*54
$GPGSA,A,3,22,15,24,19,18,,,,,,,,4.6,3.7,2.7*32
$GPRMC,230334.000,A,4014.8255,N,11138.8523,W,0.19,23.38,081114,,*26
$GPGGA,230335.000,4014.8257,N,11138.8525,W,1,05,3.7,1439.1,M,-16.4,M,,0000*52
$GPGSA,A,3,22,15,24,19,18,,,,,,,,4.6,3.7,2.7*32
$GPGSV,3,1,12,22,67,312,43,18,58,055,44,19,32,299,39,24,28,078,38*73
$GPGSV,3,2,12,15,14,046,41,26,65,180,,21,37,133,,31,21,058,*79
$GPGSV,3,3,12,03,20,304,,09,17,155,,10,05,074,,02,03,132,*74
$GPRMC,230335.000,A,4014.8257,N,11138.8525,W,0.22,0.27,081114,,*14
$GPGGA,230336.000,4014.8257,N,11138.8526,W,1,05,3.7,1438.9,M,-16.4,M,,0000*5B
$GPGSA,A,3,22,15,24,19,18,,,,,,,,4.6,3.7,2.7*32
$GPRMC,230336.000,A,4014.8257,N,11138.8526,W,0.06,15.44,081114,,*23
$GPGGA,230337.000,4014.8257,N,11138.8527,W,1,05,3.7,1438.8,M,-16.4,M,,0000*5A
$GPGSA,A,3,22,15,24,19,18,,,,,,,,4.6,3.7,2.7*32
$GPRMC,230337.000,A,4014.8257,N,11138.8527,W,0.02,116.52,081114,,*12
$GPGGA,230338.000,4014.8257,N,11138.8527,W,1,05,3.7,1438.8,M,-16.4,M,,0000*55
$GPGSA,A,3,22,15,24,19,18,,,,,,,,4.6,3.7,2.7*32
$GPRMC,230338.000,A,4014.8257,N,11138.8527,W,0.04,166.41,081114,,*1E
$GPGGA,230339.000,4014.8258,N,11138.8528,W,1,05,3.7,1438.9,M,-16.4,M,,0000*55
$GPGSA,A,3,22,15,24,19,18,,,,,,,,4.6,3.7,2.7*32
$GPRMC,230339.000,A,4014.8258,N,11138.8528,W,0.02,150.48,081114,,*15
$GPGGA,230340.000,4014.8258,N,11138.8528,W,1,05,3.7,1438.9,M,-16.4,M,,0000*5B
$GPGSA,A,3,22,15,24,19,18,,,,,,,,4.6,3.7,2.7*32
$GPGSV,3,1,12,22,67,312,43,18,58,055,44,19,32,299,39,24,28,078,38*73
$GPGSV,3,2,12,15,14,046,43,26,65,180,,21,37,133,,31,21,058,*7B
$GPGSV,3,3,12,03,20,304,,09,17,155,,10,05,074,,02,03,132,*74
$GPRMC,230340.000,A,4014.8258,N,11138.8528,W,0.03,171.33,081114,,*15
$GPGGA,230341.000,4014.8259,N,11138.8529,W,1,05,3.7,1438.9,M,-16.4,M,,0000*5A
$GPGSA,A,3,22,15,24,19,18,,,,,,,,4.6,3.7,2.7*32
$GPRMC,230341.000,A,4014.8259,N,11138.8529,W,0.01,161.25,081114,,*10
$GPGGA,230342.000,4014.8260,N,11138.8529,W,1,05,3.7,1438.9,M,-16.4,M,,0000*53
$GPGSA,A,3,22,15,24,19,18,,,,,,,,4.6,3.7,2.7*32
$GPRMC,230342.000,A,4014.8260,N,11138.8529,W,0.06,170.20,081114,,*1B
$GPGGA,230343.000,4014.8260,N,11138.8530,W,1,05,3.7,1438.9,M,-16.4,M,,0000*5A
$GPGSA,A,3,22,15,24,19,18,,,,,,,,4.6,3.7,2.7*32
$GPRMC,230343.000,A,4014.8260,N,11138.8530,W,0.01,183.46,081114,,*19
$GPGGA,230344.000,4014.8261,N,11138.8530,W,1,05,3.7,1438.9,M,-16.4,M,,0000*5C
$GPGSA,A,3,22,15,24,19,18,,,,,,,,4.6,3.7,2.7*32
$GPRMC,230344.000,A,4014.8261,N,11138.8530,W,0.06,166.32,081114,,*10
$GPGGA,230345.000,4014.8262,N,11138.8530,W,1,05,3.7,1438.9,M,-16.4,M,,0000*5E
$GPGSA,A,3,22,15,24,19,18,,,,,,,,4.6,3.7,2.7*32
$GPGSV,3,1,12,22,67,312,43,18,58,055,44,19,32,299,39,24,28,078,38*73
$GPGSV,3,2,12,15,14,046,44,26,65,180,,21,37,133,,31,21,058,*7C
$GPGSV,3,3,12,03,20,304,,09,17,155,,10,05,074,,02,03,132,*74
$GPRMC,230345.000,A,4014.8262,N,11138.8530,W,0.03,156.25,081114,,*12
$GPGGA,230346.000,4014.8262,N,11138.8530,W,1,05,3.7,1438.9,M,-16.4,M,,0000*5D
$GPGSA,A,3,22,15,24,19,18,,,,,,,,4.6,3.7,2.7*32
$GPRMC,230346.000,A,4014.8262,N,11138.8530,W,0.05,155.11,081114,,*13
$GPGGA,230347.000,4014.8263,N,11138.8531,W,1,05,3.7,1438.9,M,-16.4,M,,0000*5C
$GPGSA,A,3,22,15,24,19,18,,,,,,,,4.6,3.7,2.7*32
$GPRMC,230347.000,A,4014.8263,N,11138.8531,W,0.05,169.01,081114,,*1C
$GPGGA,230348.000,4014.8263,N,11138.8531,W,1,05,3.7,1438.9,M,-16.4,M,,0000*53
$GPGSA,A,3,22,15,24,19,18,,,,,,,,4.6,3.7,2.7*32
$GPRMC,230348.000,A,4014.8263,N,11138.8531,W,0.04,167.26,081114,,*19
$GPGGA,230349.000,4014.8263,N,11138.8531,W,1,05,3.7,1438.8,M,-16.4,M,,0000*53
$GPGSA,A,3,22,15,24,19,18,,,,,,,,4.6,3.7,2.7*32
$GPRMC,230349.000,A,4014.8263,N,11138.8531,W,0.07,166.22,081114,,*1E
$GPGGA,230350.000,4014.8263,N,11138.8531,W,1,05,3.7,1438.8,M,-16.4,M,,0000*5B
$GPGSA,A,3,22,15,24,19,18,,,,,,,,4.6,3.7,2.7*32
$GPGSV,3,1,12,22,67,313,43,26,65,180,,18,58,056,45,21,37,133,*71
$GPGSV,3,2,12,19,32,299,37,24,28,078,37,31,21,058,,03,20,304,*79
$GPGSV,3,3,12,09,17,155,,15,14,046,44,10,05,074,,02,03,132,*71
$GPRMC,230350.000,A,4014.8263,N,11138.8531,W,0.04,134.93,081114,,*18
$GPGGA,230351.000,4014.8263,N,11138.8531,W,1,05,3.8,1438.7,M,-16.4,M,,0000*5A
$GPGSA,A,3,22,15,24,19,18,,,,,,,,4.6,3.8,2.7*3D
$GPRMC,230351.000,A,4014.8263,N,11138.8531,W,0.05,145.88,081114,,*14
$GPGGA,230352.000,4014.8263,N,11138.8531,W,1,05,3.8,1438.7,M,-16.4,M,,0000*59
$GPGSA,A,3,22,15,24,19,18,,,,,,,,4.6,3.8,2.7*3D
$GPRMC,230352.000,A,4014.8263,N,11138.8531,W,0.08,151.70,081114,,*18
$GPGGA,230353.000,4014.8263,N,11138.8531,W,1,05,3.8,1438.6,M,-16.4,M,,0000*59
$GPGSA,A,3,22,15,24,19,18,,,,,,,,4.6,3.8,2.7*3D
$GPRMC,230353.000,A,4014.8263,N,11138.8531,W,0.07,159.02,081114,,*1B
$GPGGA,230354.000,4014.8262,N,11138.8531,W,1,05,3.8,1438.6,M,-16.4,M,,0000*5F
$GPGSA,A,3,22,15,24,19,18,,,,,,,,4.6,3.8,2.7*3D
$GPRMC,230354.000,A,4014.8262,N,11138.8531,W,0.06,146.44,081114,,*10
$GPGGA,230355.000,4014.8262,N,11138.8530,W,1,05,3.8,1438.5,M,-16.4,M,,0000*5C
$GPGSA,A,3,22,15,24,19,18,,,,,,,,4.6,3.8,2.7*3D
$GPGSV,3,1,12,22,67,313,43,26,65,180,,18,58,056,45,21,37,133,*71
$GPGSV,3,2,12,19,32,299,32,24,28,078,37,31,21,058,,03,20,304,*7C
$GPGSV,3,3,12,09,17,155,,15,14,046,44,10,05,074,,02,03,132,*71
$GPRMC,230355.000,A,4014.8262,N,11138.8530,W,0.05,135.91,081114,,*1F
$GPGGA,230356.000,4014.8261,N,11138.8530,W,1,05,3.8,1438.5,M,-16.4,M,,0000*5C
$GPGSA,A,3,22,15,24,19,18,,,,,,,,4.6,3.8,2.7*3D
$GPRMC,230356.000,A,4014.8261,N,11138.8530,W,0.12,156.12,081114,,*17
$GPGGA,230357.000,4014.8261,N,11138.8530,W,1,05,3.8,1438.4,M,-16.4,M,,0000*5C
$GPGSA,A,3,22,15,24,19,18,,,,,,,,4.6,3.8,2.7*3D
$GPRMC,230357.000,A,4014.8261,N,11138.8530,W,0.07,165.46,081114,,*13
$GPGGA,230358.000,4014.8260,N,11138.8529,W,1,05,3.8,1438.4,M,-16.4,M,,0000*5A
$GPGSA,A,3,22,15,24,19,18,,,,,,,,4.6,3.8,2.7*3D
$GPRMC,230358.000,A,4014.8260,N,11138.8529,W,0.09,162.41,081114,,*1B
$GPGGA,230359.000,4014.8259,N,11138.8529,W,1,05,3.8,1438.4,M,-16.4,M,,0000*51
$GPGSA,A,3,22,15,24,19,18,,,,,,,,4.6,3.8,2.7*3D
$GPRMC,230359.000,A,4014.8259,N,11138.8529,W,0.10,162.32,081114,,*1C
$GPGGA,230400.000,4014.8259,N,11138.8528,W,1,05,3.8,1438.3,M,-16.4,M,,0000*5C
$GPGSA,A,3,22,15,24,19,18,,,,,,,,4.6,3.8,2.7*3D
$GPGSV,3,1,12,22,67,313,44,26,65,180,,18,58,056,45,21,37,133,*76
$GPGSV,3,2,12,19,32,299,32,24,28,078,38,31,21,058,,03,20,304,*73
$GPGSV,3,3,12,09,17,155,,15,14,046,44,10,05,074,,02,03,132,*71
$GPRMC,230400.000,A,4014.8259,N,11138.8528,W,0.10,159.91,081114,,*17
$GPGGA,230401.000,4014.8258,N,11138.8527,W,1,05,3.8,1438.3,M,-16.4,M,,0000*53
$GPGSA,A,3,22,15,24,19,18,,,,,,,,4.6,3.8,2.7*3D
$GPRMC,230401.000,A,4014.8258,N,11138.8527,W,0.11,164.05,081114,,*1A
$GPGGA,230402.000,4014.8257,N,11138.8527,W,1,05,3.8,1438.3,M,-16.4,M,,0000*5F
$GPGSA,A,3,22,15,24,19,18,,,,,,,,4.6,3.8,2.7*3D
$GPRMC,230402.000,A,4014.8257,N,11138.8527,W,0.10,163.62,081114,,*11
$GPGGA,230403.000,4014.8257,N,11138.8526,W,1,05,3.8,1438.2,M,-16.4,M,,0000*5E
$GPGSA,A,3,22,15,24,19,18,,,,,,,,4.6,3.8,2.7*3D
$GPRMC,230403.000,A,4014.8257,N,11138.8526,W,0.10,162.73,081114,,*10
$GPGGA,230404.000,4014.8256,N,11138.8526,W,1,05,3.8,1438.2,M,-16.4,M,,0000*58
$GPGSA,A,3,22,15,24,19,18,,,,,,,,4.6,3.8,2.7*3D
$GPRMC,230404.000,A,4014.8256,N,11138.8526,W,0.10,164.99,081114,,*14
$GPGGA,230405.000,4014.8255,N,11138.8525,W,1,05,3.8,1438.2,M,-16.4,M,,0000*59
$GPGSA,A,3,22,15,24,19,18,,,,,,,,4.6,3.8,2.7*3D
$GPGSV,3,1,12,22,67,313,45,26,65,180,,18,58,056,45,21,37,133,*77
$GPGSV,3,2,12,19,32,299,32,24,28,078,37,31,21,058,,03,20,304,*7C
$GPGSV,3,3,12,09,17,155,,15,14,046,44,10,05,074,,02,03,132,*71
$GPRMC,230405.000,A,4014.8255,N,11138.8525,W,0.13,165.14,081114,,*12
$GPGGA,230406.000,4014.8254,N,11138.8525,W,1,05,3.8,1438.1,M,-16.4,M,,0000*58
$GPGSA,A,3,22,15,24,19,18,,,,,,,,4.6,3.8,2.7*3D
$GPRMC,230406.000,A,4014.8254,N,11138.8525,W,0.16,160.47,081114,,*16
$GPGGA,230407.000,4014.8254,N,11138.8524,W,1,05,3.8,1438.1,M,-16.4,M,,0000*58
$GPGSA,A,3,22,15,24,19,18,,,,,,,,4.6,3.8,2.7*3D
$GPRMC,230407.000,A,4014.8254,N,11138.8524,W,0.09,164.63,081114,,*1A
$GPGGA,230408.000,4014.8253,N,11138.8524,W,1,05,3.8,1438.0,M,-16.4,M,,0000*51
$GPGSA,A,3,22,15,24,19,18,,,,,,,,4.6,3.8,2.7*3D
$GPRMC,230408.000,A,4014.8253,N,11138.8524,W,0.13,164.57,081114,,*1E
$GPGGA,230409.000,4014.8252,N,11138.8524,W,1,05,3.8,1438.0,M,-16.4,M,,0000*51
$GPGSA,A,3,22,15,24,19,18,,,,,,,,4.6,3.8,2.7*3D
$GPRMC,230409.000,A,4014.8252,N,11138.8524,W,0.12,162.54,081114,,*1A
$GPGGA,230410.000,4014.8251,N,11138.8523,W,1,05,3.8,1437.9,M,-16.4,M,,0000*5B
$GPGSA,A,3,22,15,24,19,18,,,,,,,,4.6,3.8,2.7*3D
$GPGSV,3,1,12,22,67,313,45,26,65,180,,18,58,056,46,21,37,133,*74
$GPGSV,3,2,12,19,32,299,33,24,28,078,38,31,21,058,,03,20,304,*72
$GPGSV,3,3,12,09,17,155,,15,14,046,44,10,05,074,,02,03,132,*71
$GPRMC,230410.000,A,4014.8251,N,11138.8523,W,0.08,166.56,081114,,*1B
$GPGGA,230411.000,4014.8250,N,11138.8523,W,1,05,3.8,1437.8,M,-16.4,M,,0000*5A
$GPGSA,A,3,22,15,24,19,18,,,,,,,,4.6,3.8,2.7*3D
$GPRMC,230411.000,A,4014.8250,N,11138.8523,W,0.11,166.71,081114,,*16
$GPGGA,230412.000,4014.8250,N,11138.8523,W,1,05,3.8,1437.8,M,-16.4,M,,0000*59
$GPGSA,A,3,22,15,24,19,18,,,,,,,,4.6,3.8,2.7*3D
$GPRMC,230412.000,A,4014.8250,N,11138.8523,W,0.12,171.00,081114,,*16
$GPGGA,230413.000,4014.8249,N,11138.8522,W,1,05,3.8,1437.7,M,-16.4,M,,0000*5E
$GPGSA,A,3,22,15,24,19,18,,,,,,,,4.6,3.8,2.7*3D
$GPRMC,230413.000,A,4014.8249,N,11138.8522,W,0.13,172.01,081114,,*1D
$GPGGA,230414.000,4014.8248,N,11138.8522,W,1,05,3.8,1437.7,M,-16.4,M,,0000*58
$GPGSA,A,3,22,15,24,19,18,,,,,,,,4.7,3.8,2.7*3C
$GPRMC,230414.000,A,4014.8248,N,11138.8522,W,0.13,162.36,081114,,*1E
$GPGGA,230415.000,4014.8247,N,11138.8522,W,1,05,3.8,1437.6,M,-16.4,M,,0000*57
$GPGSA,A,3,22,15,24,19,18,,,,,,,,4.7,3.8,2.7*3C
$GPGSV,3,1,12,22,67,313,45,26,65,180,,18,58,056,46,21,37,133,*74
$GPGSV,3,2,12,19,32,299,33,24,28,078,38,31,21,058,,03,20,304,*72
$GPGSV,3,3,12,09,17,155,,15,14,046,45,10,05,074,,02,03,132,*70
$GPRMC,230415.000,A,4014.8247,N,11138.8522,W,0.11,169.74,081114,,*1F
$GPGGA,230416.000,4014.8247,N,11138.8521,W,1,05,3.8,1437.5,M,-16.4,M,,0000*54
ô$PSRFTXT,Version:GSW3.2.4_3.1.00.12-SDK003P1.00a 
$PSRFTXT,Version2:F-GPS-03-0701301
$PSRFTXT,WAAS Enable
$PSRFTXT,TOW:  601445
$PSRFTXT,WK:   1817
$PSRFTXT,POS:  -1798778 -4532ò$PSRFTXT,Version:GSW3.2.4_3.1.00.12-SDK003P1.00a 
$PSRFTXT,Version2:F-GPS-03-0701301
$PSRFTXT,WAAS Enable
$PSRFTXT,TOW:  601445
$PSRFTXT,WK:   1817
$PSRFTXT,POS:  -1798778 -4532202 4099885
$PSRFTXT,CLK:  94570
$PSRFTXT,CHNL: 12
$PSRFTXT,Baud rate: 4800 
$GPGGA,230431.777,4014.7754,N,11138.8508,W,1,05,3.8,1405.3,M,-16.4,M,,0000*52
$GPGSA,A,3,18,22,15,19,24,,,,,,,,4.7,3.8,2.7*3C
$GPRMC,230431.777,A,4014.7754,N,11138.8508,W,0.00,,081114,,*0D
$GPGGA,230432.259,4014.7791,N,11138.8523,W,1,05,3.8,1398.4,M,-16.4,M,,0000*5C
$GPGSA,A,3,18,22,15,19,24,,,,,,,,4.7,3.8,2.7*3C
$GPRMC,230432.259,A,4014.7791,N,11138.8523,W,0.62,150.95,081114,,*15
